[{"meta":{"size":11,"name":"block_change","state":"play"},"data":{"location":{"x":793,"y":5,"z":224},"type":575}},{"meta":{"size":11,"name":"block_change","state":"play"},"data":{"location":{"x":792,"y":5,"z":224},"type":575}},{"meta":{"size":11,"name":"block_change","state":"play"},"data":{"location":{"x":792,"y":6,"z":224},"type":575}},{"meta":{"size":10,"name":"block_change","state":"play"},"data":{"location":{"x":792,"y":5,"z":224},"type":0}},{"meta":{"size":11,"name":"block_change","state":"play"},"data":{"location":{"x":791,"y":6,"z":224},"type":575}},{"meta":{"size":11,"name":"block_change","state":"play"},"data":{"location":{"x":791,"y":7,"z":224},"type":575}},{"meta":{"size":10,"name":"block_change","state":"play"},"data":{"location":{"x":791,"y":6,"z":224},"type":0}},{"meta":{"size":11,"name":"block_change","state":"play"},"data":{"location":{"x":790,"y":7,"z":224},"type":575}},{"meta":{"size":11,"name":"block_change","state":"play"},"data":{"location":{"x":790,"y":6,"z":224},"type":575}},{"meta":{"size":10,"name":"block_change","state":"play"},"data":{"location":{"x":790,"y":7,"z":224},"type":0}},{"meta":{"size":11,"name":"block_change","state":"play"},"data":{"location":{"x":789,"y":6,"z":224},"type":575}},{"meta":{"size":11,"name":"block_change","state":"play"},"data":{"location":{"x":788,"y":6,"z":224},"type":575}},{"meta":{"size":11,"name":"block_change","state":"play"},"data":{"location":{"x":787,"y":6,"z":224},"type":575}},{"meta":{"size":11,"name":"block_change","state":"play"},"data":{"location":{"x":786,"y":6,"z":224},"type":575}},{"meta":{"size":11,"name":"block_change","state":"play"},"data":{"location":{"x":785,"y":6,"z":224},"type":575}},{"meta":{"size":11,"name":"block_change","state":"play"},"data":{"location":{"x":784,"y":6,"z":224},"type":575}},{"meta":{"size":11,"name":"block_change","state":"play"},"data":{"location":{"x":784,"y":7,"z":224},"type":575}},{"meta":{"size":10,"name":"block_change","state":"play"},"data":{"location":{"x":784,"y":6,"z":224},"type":0}},{"meta":{"size":11,"name":"block_change","state":"play"},"data":{"location":{"x":783,"y":7,"z":224},"type":575}},{"meta":{"size":11,"name":"block_change","state":"play"},"data":{"location":{"x":783,"y":8,"z":224},"type":575}},{"meta":{"size":10,"name":"block_change","state":"play"},"data":{"location":{"x":783,"y":7,"z":224},"type":0}},{"meta":{"size":11,"name":"block_change","state":"play"},"data":{"location":{"x":783,"y":9,"z":224},"type":575}},{"meta":{"size":11,"name":"block_change","state":"play"},"data":{"location":{"x":783,"y":10,"z":224},"type":575}},{"meta":{"size":11,"name":"block_change","state":"play"},"data":{"location":{"x":783,"y":11,"z":224},"type":575}},{"meta":{"size":11,"name":"block_change","state":"play"},"data":{"location":{"x":783,"y":12,"z":224},"type":575}},{"meta":{"size":11,"name":"block_change","state":"play"},"data":{"location":{"x":783,"y":13,"z":224},"type":575}},{"meta":{"size":11,"name":"block_change","state":"play"},"data":{"location":{"x":784,"y":13,"z":224},"type":575}},{"meta":{"size":10,"name":"block_change","state":"play"},"data":{"location":{"x":783,"y":13,"z":224},"type":0}},{"meta":{"size":11,"name":"block_change","state":"play"},"data":{"location":{"x":785,"y":13,"z":224},"type":575}},{"meta":{"size":11,"name":"block_change","state":"play"},"data":{"location":{"x":785,"y":14,"z":224},"type":575}},{"meta":{"size":10,"name":"block_change","state":"play"},"data":{"location":{"x":785,"y":13,"z":224},"type":0}},{"meta":{"size":11,"name":"block_change","state":"play"},"data":{"location":{"x":786,"y":14,"z":224},"type":575}},{"meta":{"size":11,"name":"block_change","state":"play"},"data":{"location":{"x":787,"y":14,"z":224},"type":575}},{"meta":{"size":11,"name":"block_change","state":"play"},"data":{"location":{"x":791,"y":8,"z":224},"type":575}},{"meta":{"size":11,"name":"block_change","state":"play"},"data":{"location":{"x":792,"y":8,"z":224},"type":575}},{"meta":{"size":10,"name":"block_change","state":"play"},"data":{"location":{"x":791,"y":8,"z":224},"type":0}},{"meta":{"size":11,"name":"block_change","state":"play"},"data":{"location":{"x":792,"y":9,"z":224},"type":575}},{"meta":{"size":11,"name":"block_change","state":"play"},"data":{"location":{"x":792,"y":10,"z":224},"type":575}},{"meta":{"size":11,"name":"block_change","state":"play"},"data":{"location":{"x":792,"y":11,"z":224},"type":575}},{"meta":{"size":11,"name":"block_change","state":"play"},"data":{"location":{"x":792,"y":12,"z":224},"type":575}},{"meta":{"size":11,"name":"block_change","state":"play"},"data":{"location":{"x":792,"y":13,"z":224},"type":575}},{"meta":{"size":11,"name":"block_change","state":"play"},"data":{"location":{"x":788,"y":14,"z":224},"type":575}},{"meta":{"size":11,"name":"block_change","state":"play"},"data":{"location":{"x":788,"y":14,"z":223},"type":575}},{"meta":{"size":10,"name":"block_change","state":"play"},"data":{"location":{"x":788,"y":14,"z":223},"type":0}},{"meta":{"size":11,"name":"block_change","state":"play"},"data":{"location":{"x":789,"y":14,"z":224},"type":575}},{"meta":{"size":11,"name":"block_change","state":"play"},"data":{"location":{"x":790,"y":14,"z":224},"type":575}},{"meta":{"size":11,"name":"block_change","state":"play"},"data":{"location":{"x":791,"y":14,"z":224},"type":575}},{"meta":{"size":10,"name":"block_change","state":"play"},"data":{"location":{"x":792,"y":13,"z":224},"type":0}},{"meta":{"size":11,"name":"block_change","state":"play"},"data":{"location":{"x":792,"y":13,"z":224},"type":575}},{"meta":{"size":11,"name":"block_change","state":"play"},"data":{"location":{"x":791,"y":12,"z":224},"type":575}},{"meta":{"size":11,"name":"block_change","state":"play"},"data":{"location":{"x":791,"y":13,"z":224},"type":575}},{"meta":{"size":10,"name":"block_change","state":"play"},"data":{"location":{"x":791,"y":13,"z":224},"type":0}},{"meta":{"size":10,"name":"block_change","state":"play"},"data":{"location":{"x":792,"y":13,"z":224},"type":0}},{"meta":{"size":11,"name":"block_change","state":"play"},"data":{"location":{"x":791,"y":13,"z":224},"type":575}},{"meta":{"size":10,"name":"block_change","state":"play"},"data":{"location":{"x":791,"y":12,"z":224},"type":0}},{"meta":{"size":10,"name":"block_change","state":"play"},"data":{"location":{"x":791,"y":14,"z":224},"type":0}},{"meta":{"size":11,"name":"block_change","state":"play"},"data":{"location":{"x":791,"y":8,"z":224},"type":574}},{"meta":{"size":11,"name":"block_change","state":"play"},"data":{"location":{"x":791,"y":9,"z":224},"type":574}},{"meta":{"size":11,"name":"block_change","state":"play"},"data":{"location":{"x":791,"y":12,"z":224},"type":574}},{"meta":{"size":11,"name":"block_change","state":"play"},"data":{"location":{"x":791,"y":11,"z":224},"type":574}},{"meta":{"size":11,"name":"block_change","state":"play"},"data":{"location":{"x":791,"y":10,"z":224},"type":574}},{"meta":{"size":11,"name":"block_change","state":"play"},"data":{"location":{"x":790,"y":13,"z":224},"type":574}},{"meta":{"size":11,"name":"block_change","state":"play"},"data":{"location":{"x":789,"y":13,"z":224},"type":574}},{"meta":{"size":11,"name":"block_change","state":"play"},"data":{"location":{"x":788,"y":13,"z":224},"type":574}},{"meta":{"size":11,"name":"block_change","state":"play"},"data":{"location":{"x":787,"y":13,"z":224},"type":574}},{"meta":{"size":11,"name":"block_change","state":"play"},"data":{"location":{"x":786,"y":13,"z":224},"type":574}},{"meta":{"size":11,"name":"block_change","state":"play"},"data":{"location":{"x":785,"y":13,"z":224},"type":574}},{"meta":{"size":11,"name":"block_change","state":"play"},"data":{"location":{"x":784,"y":12,"z":224},"type":574}},{"meta":{"size":11,"name":"block_change","state":"play"},"data":{"location":{"x":784,"y":11,"z":224},"type":574}},{"meta":{"size":11,"name":"block_change","state":"play"},"data":{"location":{"x":784,"y":9,"z":224},"type":574}},{"meta":{"size":11,"name":"block_change","state":"play"},"data":{"location":{"x":784,"y":10,"z":224},"type":574}},{"meta":{"size":11,"name":"block_change","state":"play"},"data":{"location":{"x":784,"y":8,"z":224},"type":574}},{"meta":{"size":11,"name":"block_change","state":"play"},"data":{"location":{"x":785,"y":7,"z":224},"type":574}},{"meta":{"size":11,"name":"block_change","state":"play"},"data":{"location":{"x":786,"y":7,"z":224},"type":574}},{"meta":{"size":11,"name":"block_change","state":"play"},"data":{"location":{"x":787,"y":7,"z":224},"type":574}},{"meta":{"size":11,"name":"block_change","state":"play"},"data":{"location":{"x":788,"y":7,"z":224},"type":574}},{"meta":{"size":11,"name":"block_change","state":"play"},"data":{"location":{"x":789,"y":7,"z":224},"type":574}},{"meta":{"size":11,"name":"block_change","state":"play"},"data":{"location":{"x":790,"y":7,"z":224},"type":574}},{"meta":{"size":11,"name":"block_change","state":"play"},"data":{"location":{"x":785,"y":8,"z":224},"type":561}},{"meta":{"size":11,"name":"block_change","state":"play"},"data":{"location":{"x":786,"y":8,"z":224},"type":561}},{"meta":{"size":11,"name":"block_change","state":"play"},"data":{"location":{"x":787,"y":8,"z":224},"type":561}},{"meta":{"size":11,"name":"block_change","state":"play"},"data":{"location":{"x":789,"y":8,"z":224},"type":561}},{"meta":{"size":11,"name":"block_change","state":"play"},"data":{"location":{"x":790,"y":8,"z":224},"type":561}},{"meta":{"size":11,"name":"block_change","state":"play"},"data":{"location":{"x":788,"y":8,"z":224},"type":561}},{"meta":{"size":11,"name":"block_change","state":"play"},"data":{"location":{"x":785,"y":9,"z":224},"type":561}},{"meta":{"size":11,"name":"block_change","state":"play"},"data":{"location":{"x":785,"y":10,"z":224},"type":561}},{"meta":{"size":11,"name":"block_change","state":"play"},"data":{"location":{"x":785,"y":11,"z":224},"type":561}},{"meta":{"size":11,"name":"block_change","state":"play"},"data":{"location":{"x":785,"y":12,"z":224},"type":561}},{"meta":{"size":11,"name":"block_change","state":"play"},"data":{"location":{"x":786,"y":12,"z":224},"type":561}},{"meta":{"size":11,"name":"block_change","state":"play"},"data":{"location":{"x":787,"y":12,"z":224},"type":561}},{"meta":{"size":11,"name":"block_change","state":"play"},"data":{"location":{"x":788,"y":12,"z":224},"type":561}},{"meta":{"size":11,"name":"block_change","state":"play"},"data":{"location":{"x":789,"y":12,"z":224},"type":561}},{"meta":{"size":11,"name":"block_change","state":"play"},"data":{"location":{"x":790,"y":12,"z":224},"type":561}},{"meta":{"size":11,"name":"block_change","state":"play"},"data":{"location":{"x":790,"y":11,"z":224},"type":561}},{"meta":{"size":11,"name":"block_change","state":"play"},"data":{"location":{"x":790,"y":10,"z":224},"type":561}},{"meta":{"size":11,"name":"block_change","state":"play"},"data":{"location":{"x":790,"y":9,"z":224},"type":561}},{"meta":{"size":11,"name":"block_change","state":"play"},"data":{"location":{"x":788,"y":9,"z":224},"type":564}},{"meta":{"size":11,"name":"block_change","state":"play"},"data":{"location":{"x":789,"y":10,"z":224},"type":564}},{"meta":{"size":11,"name":"block_change","state":"play"},"data":{"location":{"x":789,"y":9,"z":224},"type":564}},{"meta":{"size":11,"name":"block_change","state":"play"},"data":{"location":{"x":789,"y":11,"z":224},"type":564}},{"meta":{"size":11,"name":"block_change","state":"play"},"data":{"location":{"x":788,"y":11,"z":224},"type":564}},{"meta":{"size":11,"name":"block_change","state":"play"},"data":{"location":{"x":786,"y":11,"z":224},"type":564}},{"meta":{"size":11,"name":"block_change","state":"play"},"data":{"location":{"x":787,"y":11,"z":224},"type":564}},{"meta":{"size":11,"name":"block_change","state":"play"},"data":{"location":{"x":786,"y":10,"z":224},"type":564}},{"meta":{"size":11,"name":"block_change","state":"play"},"data":{"location":{"x":786,"y":9,"z":224},"type":564}},{"meta":{"size":11,"name":"block_change","state":"play"},"data":{"location":{"x":787,"y":9,"z":224},"type":564}},{"meta":{"size":11,"name":"block_change","state":"play"},"data":{"location":{"x":788,"y":10,"z":224},"type":565}},{"meta":{"size":11,"name":"block_change","state":"play"},"data":{"location":{"x":787,"y":10,"z":224},"type":565}},{"meta":{"size":11,"name":"block_change","state":"play"},"data":{"location":{"x":783,"y":7,"z":224},"type":575}},{"meta":{"size":11,"name":"block_change","state":"play"},"data":{"location":{"x":783,"y":6,"z":224},"type":575}},{"meta":{"size":11,"name":"block_change","state":"play"},"data":{"location":{"x":782,"y":6,"z":224},"type":575}},{"meta":{"size":10,"name":"block_change","state":"play"},"data":{"location":{"x":783,"y":6,"z":224},"type":0}},{"meta":{"size":11,"name":"block_change","state":"play"},"data":{"location":{"x":782,"y":5,"z":224},"type":575}},{"meta":{"size":11,"name":"block_change","state":"play"},"data":{"location":{"x":781,"y":5,"z":224},"type":575}},{"meta":{"size":10,"name":"block_change","state":"play"},"data":{"location":{"x":782,"y":5,"z":224},"type":0}}]